{"identifier":"id","numRows":20,
	"items":[
		{"id":"FSCDB","name":"FSCDB","region":"South Caribbean Deformed Belt","energyLayer":0,"lon":-67.5,"lat":18.5,"xmin":-85,"xmax":-40,"ymin":10,"ymax":40},
		{"id":"MEF","name":"MEF","region":"Mona Passage","energyLayer":1,"lon":-67.5,"lat":18.5,"xmin":-85,"xmax":-40,"ymin":10,"ymax":40},
		{"id":"MS","name":"MS","region":"Muertos Trough","energyLayer":2,"lon":-67.5,"lat":18.5,"xmin":-85,"xmax":-40,"ymin":10,"ymax":40},
		{"id":"NPDB","name":"NPDB","region":"North Panama Deformed Belt","energyLayer":3,"lon":-67.5,"lat":18.5,"xmin":-85,"xmax":-40,"ymin":10,"ymax":40},
		{"id":"PRT","name":"PRT","region":"Puerto Rico Trench","energyLayer":4,"lon":-67.5,"lat":18.5,"xmin":-85,"xmax":-40,"ymin":10,"ymax":40},
		{"id":"ROATAN","name":"ROATAN","region":"Honduras Gulf","energyLayer":5,"lon":-67.5,"lat":18.5,"xmin":-85,"xmax":-40,"ymin":10,"ymax":40},
		{"id":"SAN_PEDRO_SULA","name":"SAN_PEDRO_SULA","region":"Honduras Gulf","energyLayer":6,"lon":-67.5,"lat":18.5,"xmin":-85,"xmax":-40,"ymin":10,"ymax":40},
		{"id":"SMT1","name":"SMT1","region":"Muertos Trough","energyLayer":7,"lon":-67.5,"lat":18.5,"xmin":-85,"xmax":-40,"ymin":10,"ymax":40},
		{"id":"SMT2","name":"SMT2","region":"Muertos Trough","energyLayer":8,"lon":-67.5,"lat":18.5,"xmin":-85,"xmax":-40,"ymin":10,"ymax":40},
		{"id":"WMT","name":"WMT","region":"Muertos Trough","energyLayer":9,"lon":-67.5,"lat":18.5,"xmin":-85,"xmax":-40,"ymin":10,"ymax":40},
		{"id":"WSCDB","name":"WSCDB","region":"South Caribbean Deformed Belt","energyLayer":10,"lon":-67.5,"lat":18.5,"xmin":-85,"xmax":-40,"ymin":10,"ymax":40}
	]
}